[
  {
    "address": {
      "city": "Praha 7",
      "street": "Janovského 24"
    },
    "available": true,
    "contactPerson": "Jitka Kováříková, +420 737 713 544, jytuska@centrum.cz",
    "globalUniversal": true,
    "id": "c0001",
    "name": "PRAHA - Rodinné Centrum Letná, o.s.",
    "openHours": "Úterý, Středa a Pátek 9.00 - 12.00 hod.; Středa, Čtvrtek, Pátek 17.00 - 19.00 hod.",
    "place": "p0003",
    "placeUniversal": true
  },
  {
    "address": {
      "city": "Praha 2",
      "street": "Pod Nuselskými schody 1721/3"
    },
    "available": false,
    "contactPerson": "Radka Maršíčková, +420 732 857 225, kamos@barevnysvetdeti.cz",
    "globalUniversal": false,
    "id": "c0002",
    "name": "PRAHA - Barevný svět dětí, z.s.",
    "openHours": "Pondělí, Úterý, Středa, Pátek 9.00 - 17.00 hod. (ve čtvrtek je zavřeno)",
    "place": "p0003",
    "placeUniversal": false
  },
  {
    "address": {
      "city": "České Budějovice",
      "street": "Jar. Haška 1818/1"
    },
    "available": true,
    "contactPerson": "Hana Francová, +420 702 571 757, hana.francova@tempericb.cz",
    "globalUniversal": false,
    "id": "c0003",
    "name": "ČESKÉ BUDĚJOVICE - Temperi o.p.s.",
    "openHours": "Pondělí - Pátek 9.00 - 17.00 hod.",
    "place": "p0001",
    "placeUniversal": true
  },
  {
    "address": {
      "city": "Plzeň",
      "street": "Černická 887/9"
    },
    "available": true,
    "contactPerson": "Martina Hajná, +420 730 890 760, martinahajna@domus-cpr.cz",
    "globalUniversal": false,
    "id": "c0004",
    "name": "PLZEŇ - DOMUS, Centrum pro rodinu, z.s.",
    "openHours": "Pondělí a Středa: 9.00 – 17.00 hod.; Úterý a Čtvrtek: 9.00 - 16.00 hod.; Pátek: 9.00 - 15.00 hod.",
    "place": "p0002",
    "placeUniversal": true
  },
  {
    "address": {
      "city": "Sedlec-Prčice",
      "street": "Přestavlky 1"
    },
    "available": false,
    "contactPerson": "",
    "globalUniversal": false,
    "id": "c0005",
    "name": "PRAHA - Dětský domov Přestavlky",
    "openHours": "",
    "place": "p0003",
    "placeUniversal": false
  },
  {
    "address": {
      "city": "České Budějovice",
      "street": "Čechova 164/1"
    },
    "available": true,
    "contactPerson": "Zuzana Divišová, +420 734 781 833, zuzana.divisova@ranapece.cz",
    "globalUniversal": false,
    "id": "c0006",
    "name": "ČESKÉ BUDĚJOVICE - Společnost pro ranou péči, z.s.",
    "openHours": "Pondělí - Pátek 7.30 - 17.00 hod.",
    "place": "p0001",
    "placeUniversal": false
  }
]
